{
	"maxmind": {
		"default": {
			"continent": {
				"code": "NA"
			},
			"country": {
				"isoCode": "US"
			},
			"city": {
				"names": {
					"en": "Dallas"
				}
			},
			"location": {
				"latitude": 32.814,
				"longitude": -96.870
			},
			"traits": {
				"autonomousSystemNumber": 40676,
				"isp": "psychz networks"
			}
		},
		"argentina": {
			"continent": {
				"code": "SA"
			},
			"country": {
				"isoCode": "AR"
			},
			"city": {
				"names": {
					"en": "Buenos Aires"
				}
			},
			"location": {
				"latitude": -34.602,
				"longitude": -58.384
			},
			"traits": {
				"autonomousSystemNumber": 61493,
				"isp": "interbs s.r.l."
			}
		},
		"newYork": {
			"continent": {
				"code": "NA"
			},
			"country": {
				"isoCode": "US"
			},
			"city": {
				"names": {
					"en": "The New York City"
				}
			},
			"location": {
				"latitude": 32.814,
				"longitude": -96.870
			},
			"traits": {
				"autonomousSystemNumber": 40676,
				"isp": "psychz networks"
			}
		},
		"emptyCity": {
			"continent": {
				"code": "NA"
			},
			"country": {
				"isoCode": "US"
			},
			"city": {
				"names": {}
			},
			"location": {
				"latitude": 32.814,
				"longitude": -96.870
			},
			"traits": {
				"autonomousSystemNumber": 40676,
				"isp": "psychz networks"
			}
		}
	},
	"ipinfo": {
		"default": {
			"city": "Dallas",
			"region": "Texas",
			"country": "US",
			"loc": "32.7492,-96.8389",
			"org": "AS123 Psychz Networks"
		},
		"argentina": {
			"city": "Lagoa do Carro",
			"region": "Pernambuco",
			"country": "BR",
			"loc": "-7.7568,-35.3656",
			"org": "AS61493 InterBS S.R.L. (BAEHOST)"
		},
		"emptyCity": {
			"city": "",
			"region": "Texas",
			"country": "US",
			"loc": "32.7492,-96.8389",
			"org": "AS43939 Psychz Networks"
		},
		"newYork": {
			"city": "The New York City",
			"region": "New York",
			"country": "US",
			"loc": "-7.7568,-35.3656",
			"org": "AS61493 InterBS S.R.L. (BAEHOST)"
		},
		"emptyNetwork": {
			"city": "Dallas",
			"region": "Texas",
			"country": "US",
			"loc": "32.7492,-96.8389",
			"org": ""
		},
		"undefinedNetwork": {
			"city": "Dallas",
			"region": "Texas",
			"country": "US",
			"loc": "32.7492,-96.8389"
		}
	},
	"fastly": {
		"default": {
			"as": {
				"name": "psychz networks",
				"number": 40676
			},
			"geo-digitalelement": {
				"city": "dallas",
				"continent_code": "NA",
				"country_code": "US",
				"country_code3": "USA",
				"country_name": "united states",
				"latitude": 32.810,
				"longitude": -96.880,
				"region": "TX"
			}
		},
		"argentina": {
			"as": {
				"name": "interbs s.r.l.",
				"number": 61493
			},
			"geo-digitalelement": {
				"city": "buenos aires",
				"continent_code": "SA",
				"country_code": "AR",
				"country_code3": "ARG",
				"country_name": "argentina",
				"latitude": -34.61,
				"longitude": -58.42,
				"region": "C"
			}
		},
		"newYork": {
			"as": {
				"name": "psychz networks",
				"number": 40676
			},
			"geo-digitalelement": {
				"city": "New York City",
				"continent_code": "NA",
				"country_code": "US",
				"country_code3": "USA",
				"country_name": "united states",
				"latitude": 32.810,
				"longitude": -96.880,
				"region": "NY"
			}
		},
		"emtpyCity": {
			"as": {
				"name": "psychz networks",
				"number": 40676
			},
			"geo-digitalelement": {
				"city": "",
				"continent_code": "NA",
				"country_code": "US",
				"country_code3": "USA",
				"country_name": "united states",
				"latitude": 32.810,
				"longitude": -96.880,
				"region": "TX"
			}
		},
		"noClient": {
			"as": {
				"name": "psychz networks",
				"number": 40676
			},
			"geo-digitalelement": {
				"city": "dallas",
				"continent_code": "NA",
				"country_code": "US",
				"country_code3": "USA",
				"country_name": "united states",
				"latitude": 32.810,
				"longitude": -96.880,
				"region": "TX"
			}
		},
		"reserved": {
			"as": {
				"name": "interbs s.r.l.",
				"number": 61493
			},
			"geo-digitalelement": {
				"city": "reserved",
				"continent_code": "SA",
				"country_code": "AR",
				"country_code3": "ARG",
				"country_name": "argentina",
				"latitude": -34.61,
				"longitude": -58.42,
				"region": "C"
			}
		},
		"private": {
			"as": {
				"name": "interbs s.r.l.",
				"number": 61493
			},
			"geo-digitalelement": {
				"city": "private",
				"continent_code": "SA",
				"country_code": "AR",
				"country_code3": "ARG",
				"country_name": "argentina",
				"latitude": -34.61,
				"longitude": -58.42,
				"region": "C"
			}
		},
		"proxyDescVpn": {
			"as": {
				"name": "psychz networks",
				"number": 40676
			},
			"geo-digitalelement": {
				"city": "dallas",
				"continent_code": "NA",
				"country_code": "US",
				"country_code3": "USA",
				"country_name": "united states",
				"latitude": 32.810,
				"longitude": -96.880,
				"region": "TX"
			},
			"client": {
				"proxy_desc": "vpn",
				"proxy_type": "unknown"
			}
		},
		"proxyDescTor": {
			"as": {
				"name": "psychz networks",
				"number": 40676
			},
			"geo-digitalelement": {
				"city": "dallas",
				"continent_code": "NA",
				"country_code": "US",
				"country_code3": "USA",
				"country_name": "united states",
				"latitude": 32.810,
				"longitude": -96.880,
				"region": "TX"
			},
			"client": {
				"proxy_desc": "tor-exit",
				"proxy_type": "corporate"
			}
		},
		"proxyTypeCorporate": {
			"as": {
				"name": "psychz networks",
				"number": 40676
			},
			"geo-digitalelement": {
				"city": "dallas",
				"continent_code": "NA",
				"country_code": "US",
				"country_code3": "USA",
				"country_name": "united states",
				"latitude": 32.810,
				"longitude": -96.880,
				"region": "TX"
			},
			"client": {
				"proxy_desc": "",
				"proxy_type": "corporate"
			}
		},
		"proxyTypeAol": {
			"as": {
				"name": "psychz networks",
				"number": 40676
			},
			"geo-digitalelement": {
				"city": "dallas",
				"continent_code": "NA",
				"country_code": "US",
				"country_code3": "USA",
				"country_name": "united states",
				"latitude": 32.810,
				"longitude": -96.880,
				"region": "TX"
			},
			"client": {
				"proxy_desc": "",
				"proxy_type": "aol"
			}
		},
		"proxyTypeAnonymous": {
			"as": {
				"name": "psychz networks",
				"number": 40676
			},
			"geo-digitalelement": {
				"city": "dallas",
				"continent_code": "NA",
				"country_code": "US",
				"country_code3": "USA",
				"country_name": "united states",
				"latitude": 32.810,
				"longitude": -96.880,
				"region": "TX"
			},
			"client": {
				"proxy_desc": "",
				"proxy_type": "anonymous"
			}
		},
		"proxyTypeBlackberry": {
			"as": {
				"name": "psychz networks",
				"number": 40676
			},
			"geo-digitalelement": {
				"city": "dallas",
				"continent_code": "NA",
				"country_code": "US",
				"country_code3": "USA",
				"country_name": "united states",
				"latitude": 32.810,
				"longitude": -96.880,
				"region": "TX"
			},
			"client": {
				"proxy_desc": "",
				"proxy_type": "blackberry"
			}
		}
	}
}
